{
  "type": "FeatureCollection",
  "features": [
    {
      "type": "Feature",
      "properties": {
        "name": "Nusa Putra University",
        "type": "campus",
        "desc": "Universitas Nusa Putra",
        "image": "assets/Gedung UNP.jpg",
        "icon": "campus"
      },
      "geometry": {
        "type": "Point",
        "coordinates": [106.87344808094224, -6.905182345406646]
      }
    },
    {
      "type": "Feature",
      "properties": {
        "name": "Kost pa haji naim",
        "type": "kost",
        "desc": " harga terjangkau",
        "harga": "Rp 500.000/bulan",
        "fasilitas": "KM Dalam, WiFi, Listrik",
        "jarak": "500 meter dari kampus",
        "image": "assets/kost.jpg",
        "icon": "kost"
      },
      "geometry": {
        "type": "Point",
        "coordinates": [106.8722584065289, -6.908656677296709]
      }
    },
    {
      "type": "Feature",
      "properties": {
        "name": "Kost mawar merah jingga",
        "type": "kost",
        "desc": "Kost khusus mahasiswa, lingkungan aman",
        "harga": "Rp 600.000/bulan",
        "fasilitas": "AC, WiFi, Dapur, Parkir",
        "jarak": "400 meter dari kampus",
        "image": "assets/kostan1.jpg",
        "icon": "kost"
      },
      "geometry": {
        "type": "Point",
        "coordinates": [106.874, -6.906]
      }
    },
    {
      "type": "Feature",
      "properties": {
        "name": "Kost Putri melati",
        "type": "kost",
        "desc": "Kost putri, suasana asri",
        "harga": "Rp 450.000 /bulan",
        "fasilitas": "Listrik, Air, WiFi",
        "jarak": "600 meter dari kampus",
        "image": "assets/kost2.jpg",
        "icon": "kost"
      },
      "geometry": {
        "type": "Point",
        "coordinates": [106.87177897298143, -6.906280577030276]
      }
    },
    {
      "type": "Feature",
      "properties": {
        "name": "Kost Sriwijaya",
        "type": "kost",
        "desc": "Kost putra/putri, akses mudah ke kampus",
        "harga": "Rp 550.000/bulan",
        "fasilitas": "KM Dalam, WiFi, Kulkas",
        "jarak": "350 meter dari kampus",
        "image": "assets/kost3.jpg",
        "icon": "kost"
      },
      "geometry": {
        "type": "Point",
        "coordinates": [106.87397246909478, -6.905112416687205]
      }
    },
    {
      "type": "Feature",
      "properties": {
        "name": "Kost nu bener ah",
        "type": "kost",
        "desc": "Kost murah meriah, lingkungan religius",
        "harga": "Rp 500.000/bulan",
        "fasilitas": "Mushola, WiFi, Listrik",
        "jarak": "550 meter dari kampus",
        "image": "assets/kost4.jpg",
        "icon": "kost"
      },
      "geometry": {
        "type": "Point",
        "coordinates": [106.8718, -6.908]
      }
    }
  ]
}
